[
  {
    "id": "1",
    "title": "Ассоциация компаний «Русский Свет» 1",
    "city": "Москва",
    "address": "ул. Крылова, д. 68 А, оф. 26",
    "phones": ["(3902) 28-80-87", "30-61-12"],
    "geo": [51.1169295, 37.6013023]
  },
  {
    "id":  "2",
    "title": "Ассоциация компаний «Русский Свет» 2",
    "city": "Москва",
    "address": "ул. Крылова, д. 68 А, оф. 26",
    "phones": ["(3902) 28-80-87", "30-61-12"],
    "geo": [52.2269295, 37.6013023]
  },
  {
    "id":  "3",
    "title": "Ассоциация компаний «Русский Свет» 3",
    "city": "Санкт-Петербург",
    "address": "ул. Крылова, д. 68 А, оф. 26",
    "phones": ["(3902) 28-80-87", "30-61-12"],
    "geo": [53.3369295, 34.6013023]
  },
  {
    "id":  "4",
    "title": "Ассоциация компаний «Русский Свет» 4",
    "city": "Москва",
    "address": "ул. Крылова, д. 68 А, оф. 26",
    "phones": ["(3902) 28-80-87", "30-61-12"],
    "geo": [54.4469295, 37.6013023]
  },
  {
    "id":  "5",
    "title": "Ассоциация компаний «Русский Свет» 5",
    "city": "Москва",
    "address": "ул. Крылова, д. 68 А, оф. 26",
    "phones": ["(3902) 28-80-87", "30-61-12"],
    "geo": [55.5569295, 37.6013023]
  }
]